City_ID,City,Country,Date,Lat,Lng,Max Temp,Humidity,Cloudiness,Wind Speed
0,Tiznit,MA,2022-04-16 23:49:35,29.5833,-9.5,74.97,23,45,3.67
1,Seymchan,RU,2022-04-16 23:49:35,62.8833,152.4333,17.4,82,90,4.0
2,Ushuaia,AR,2022-04-16 23:42:52,-54.8,-68.3,38.86,81,0,6.91
3,San Patricio,US,2022-04-16 23:47:25,28.017,-97.5169,87.89,70,94,13.44
4,Panzhihua,CN,2022-04-16 23:49:36,26.5851,101.7128,68.04,52,81,1.92
5,Barrow,US,2022-04-16 23:47:13,71.2906,-156.7887,6.82,78,0,19.57
6,Hualmay,PE,2022-04-16 23:49:36,-11.0964,-77.6139,67.06,83,93,10.71
7,Isangel,VU,2022-04-16 23:48:19,-19.55,169.2667,84.51,69,13,6.15
8,Mataura,NZ,2022-04-16 23:46:21,-46.1927,168.8643,53.47,54,70,5.01
9,Norman Wells,CA,2022-04-16 23:45:57,65.282,-126.8329,17.64,35,20,3.44
10,Bredasdorp,ZA,2022-04-16 23:47:06,-34.5322,20.0403,56.05,82,0,6.82
11,Albany,US,2022-04-16 23:41:25,42.6001,-73.9662,39.92,90,100,3.4
12,Rikitea,PF,2022-04-16 23:45:54,-23.1203,-134.9692,78.75,69,9,13.78
13,Husavik,IS,2022-04-16 23:49:37,66.0449,-17.3389,42.31,86,100,11.95
14,Bam,IR,2022-04-16 23:49:37,29.106,58.357,79.36,22,99,7.58
15,Tuktoyaktuk,CA,2022-04-16 23:49:38,69.4541,-133.0374,1.4,71,75,6.91
16,Pisco,PE,2022-04-16 23:49:38,-13.7,-76.2167,65.01,82,0,19.57
17,Avarua,CK,2022-04-16 23:46:09,-21.2078,-159.775,82.45,78,75,9.22
18,Souillac,MU,2022-04-16 23:49:39,-20.5167,57.5167,77.38,88,40,10.36
19,Koster,ZA,2022-04-16 23:49:39,-25.863,26.8976,52.11,94,98,11.83
20,Aklavik,CA,2022-04-16 23:49:39,68.2191,-135.0107,19.4,42,0,9.22
21,Esna,EG,2022-04-16 23:49:40,25.2934,32.554,82.42,13,1,4.5
22,Tasiilaq,GL,2022-04-16 23:48:31,65.6145,-37.6368,35.76,97,100,10.76
23,Kamen-Rybolov,RU,2022-04-16 23:49:40,44.7481,132.0403,46.13,33,8,7.31
24,Dembi Dolo,ET,2022-04-16 23:49:40,8.5333,34.8,59.2,95,100,5.03
25,Patacamaya,BO,2022-04-16 23:49:41,-17.2333,-67.9167,48.96,31,13,7.83
26,Castro,BR,2022-04-16 23:47:22,-24.7911,-50.0119,52.32,88,0,4.43
27,Hermanus,ZA,2022-04-16 23:45:58,-34.4187,19.2345,57.79,79,3,15.35
28,Saldanha,ZA,2022-04-16 23:46:57,-33.0117,17.9442,59.05,64,0,11.43
29,Hilo,US,2022-04-16 23:46:15,19.7297,-155.09,74.28,90,100,5.75
30,Clyde River,CA,2022-04-16 23:48:31,70.4692,-68.5914,-12.77,84,75,5.75
31,Atuona,PF,2022-04-16 23:47:09,-9.8,-139.0333,79.56,78,30,16.55
32,Khatanga,RU,2022-04-16 23:48:34,71.9667,102.5,18.19,96,98,6.38
33,Key Largo,US,2022-04-16 23:48:45,25.0865,-80.4473,80.6,80,3,9.24
34,Siniscola,IT,2022-04-16 23:49:42,40.5719,9.6922,58.55,71,27,9.82
35,New Norfolk,AU,2022-04-16 23:49:42,-42.7826,147.0587,66.92,62,100,4.72
36,Finnsnes,NO,2022-04-16 23:49:43,69.2296,17.9811,38.01,99,100,5.79
37,Longyearbyen,SJ,2022-04-16 23:49:43,78.2186,15.6401,22.84,68,75,8.05
38,Saskylakh,RU,2022-04-16 23:47:23,71.9167,114.0833,16.14,93,99,17.83
39,Sibolga,ID,2022-04-16 23:49:43,1.7427,98.7792,78.04,84,38,2.77
40,Pangnirtung,CA,2022-04-16 23:49:44,66.1451,-65.7125,-0.18,94,94,5.59
41,Manacapuru,BR,2022-04-16 23:49:44,-3.2997,-60.6206,76.71,89,83,1.57
42,Esperance,AU,2022-04-16 23:48:27,-33.8667,121.9,58.84,70,77,14.54
43,Tibati,CM,2022-04-16 23:49:44,6.4667,12.6333,72.43,72,70,0.58
44,Harnosand,SE,2022-04-16 23:49:45,62.6323,17.9379,35.6,90,59,7.45
45,Cape Town,ZA,2022-04-16 23:43:30,-33.9258,18.4232,60.91,69,0,13.0
46,Sept-Iles,CA,2022-04-16 23:49:45,50.2001,-66.3821,37.92,65,20,10.36
47,Alofi,NU,2022-04-16 23:49:46,-19.0595,-169.9187,85.89,70,21,8.05
48,Kodiak,US,2022-04-16 23:46:09,57.79,-152.4072,40.51,75,100,14.97
49,Labuhan,ID,2022-04-16 23:50:46,-6.8844,112.2051,80.4,84,83,4.79
50,Port Alfred,ZA,2022-04-16 23:46:04,-33.5906,26.891,61.18,92,100,11.56
51,Kununurra,AU,2022-04-16 23:47:04,-15.7667,128.7333,84.18,74,38,2.3
52,Berbera,SO,2022-04-16 23:50:47,10.4396,45.0143,81.37,81,63,3.76
53,Karratha,AU,2022-04-16 23:47:25,-20.7377,116.8463,86.11,42,27,3.76
54,Namatanai,PG,2022-04-16 23:50:47,-3.6667,152.4333,84.33,70,97,5.75
55,Ondo,NG,2022-04-16 23:50:48,7.1,4.8333,73.18,96,71,2.15
56,Tual,ID,2022-04-16 23:50:34,-5.6667,132.75,83.82,71,100,4.0
57,Lebu,CL,2022-04-16 23:50:48,-37.6167,-73.65,53.4,92,27,10.09
58,Bluff,NZ,2022-04-16 23:46:23,-46.6,168.3333,53.8,61,88,6.55
59,Cidreira,BR,2022-04-16 23:46:24,-30.1811,-50.2056,65.68,75,100,7.45
60,Geraldton,AU,2022-04-16 23:46:29,-28.7667,114.6,66.61,77,40,10.36
61,Port Moresby,PG,2022-04-16 23:50:49,-9.4431,147.1797,83.62,65,40,5.75
62,Bereda,ES,2022-04-16 23:50:49,43.2686,-7.5406,53.42,100,50,2.26
63,Kuryk,KZ,2022-04-16 23:50:49,43.2,51.65,57.0,52,66,9.64
64,Stabat,ID,2022-04-16 23:50:50,3.761,98.4513,77.2,97,100,2.39
65,Quatre Cocos,MU,2022-04-16 23:50:50,-20.2078,57.7625,77.11,84,53,13.18
66,Abu Dhabi,AE,2022-04-16 23:48:01,24.4667,54.3667,86.02,54,0,4.61
67,Pemba,MZ,2022-04-16 23:50:50,-12.974,40.5178,79.5,89,40,6.91
68,Fortuna,US,2022-04-16 23:50:51,40.5982,-124.1573,54.93,61,40,10.36
69,Butaritari,KI,2022-04-16 23:47:10,3.0707,172.7902,81.77,76,24,12.86
70,Saint-Pierre,RE,2022-04-16 23:50:51,-21.3393,55.4781,76.68,74,0,13.8
71,Korla,CN,2022-04-16 23:50:51,41.7597,86.1469,47.98,15,0,2.71
72,Grindavik,IS,2022-04-16 23:50:52,63.8424,-22.4338,46.35,100,75,13.8
73,Ulaanbaatar,MN,2022-04-16 23:50:35,47.9077,106.8832,21.33,79,0,2.24
74,Chuy,UY,2022-04-16 23:47:07,-33.6971,-53.4616,59.61,82,38,6.58
75,Busselton,AU,2022-04-16 23:45:51,-33.65,115.3333,59.2,64,22,9.17
76,Avera,US,2022-04-16 23:50:53,33.194,-82.5271,67.51,90,100,1.1
77,Saint Anthony,US,2022-04-16 23:50:53,45.0205,-93.218,40.93,36,0,17.27
78,Georgetown,MY,2022-04-16 23:50:51,5.4112,100.3354,78.75,94,20,2.3
79,Coquimbo,CL,2022-04-16 23:46:29,-29.9533,-71.3436,56.93,94,75,8.05
80,Hasaki,JP,2022-04-16 23:50:53,35.7333,140.8333,55.8,54,88,8.37
81,Punta Arenas,CL,2022-04-16 23:45:14,-53.15,-70.9167,46.51,81,40,10.36
82,Talnakh,RU,2022-04-16 23:48:32,69.4865,88.3972,15.42,94,100,13.18
83,Gushi,CN,2022-04-16 23:50:54,34.6425,109.5843,51.6,61,100,7.92
84,Nara,JP,2022-04-16 23:50:54,34.6851,135.8049,55.96,42,88,3.47
85,Lavrentiya,RU,2022-04-16 23:50:55,65.5833,-171.0,30.45,94,99,10.09
86,Ostersund,SE,2022-04-16 23:50:55,63.1792,14.6357,37.85,75,81,5.75
87,Kapaa,US,2022-04-16 23:46:06,22.0752,-159.319,82.38,85,75,24.16
88,Ribeira Grande,PT,2022-04-16 23:46:02,38.5167,-28.7,59.92,76,20,16.2
89,Luderitz,NA,2022-04-16 23:50:56,-26.6481,15.1594,62.17,61,0,11.99
90,Alta Floresta,BR,2022-04-16 23:50:56,-9.8756,-56.0861,73.42,96,90,1.36
91,Cabo San Lucas,MX,2022-04-16 23:45:49,22.8909,-109.9124,88.61,16,75,11.5
92,Faya,SA,2022-04-16 23:50:56,18.3851,42.4509,64.51,46,4,4.32
93,Poso,ID,2022-04-16 23:51:57,-1.3959,120.7524,80.11,82,100,1.86
94,Rumphi,MW,2022-04-16 23:51:57,-11.0186,33.8575,61.88,96,72,2.62
95,Mersing,MY,2022-04-16 23:51:57,2.4312,103.8405,78.71,89,83,2.3
96,Ebolowa,CM,2022-04-16 23:51:58,2.9,11.15,69.64,98,57,1.41
97,Hambantota,LK,2022-04-16 23:51:58,6.1241,81.1185,80.06,82,74,7.14
98,Jamestown,US,2022-04-16 23:45:52,42.097,-79.2353,41.52,49,20,13.8
99,Thunder Bay,CA,2022-04-16 23:51:20,48.4001,-89.3168,29.28,62,100,11.5
100,Airai,TL,2022-04-16 23:46:04,-8.9266,125.4092,68.18,74,53,2.28
101,Banjarmasin,ID,2022-04-16 23:51:59,-3.3244,114.591,73.54,89,95,3.89
102,Alexandroupoli,GR,2022-04-16 23:51:59,40.8475,25.8744,59.27,67,100,8.63
103,Pacific Grove,US,2022-04-16 23:47:23,36.6177,-121.9166,64.02,78,75,8.05
104,Nizhniye Vyazovyye,RU,2022-04-16 23:52:00,55.7988,48.5248,32.18,98,100,16.46
105,Vaini,TO,2022-04-16 23:46:28,-21.2,-175.2,84.36,79,40,8.05
106,Saint-Philippe,RE,2022-04-16 23:46:00,-21.3585,55.7679,76.59,77,51,10.49
107,Russellville,US,2022-04-16 23:52:00,35.2784,-93.1338,64.54,63,100,9.22
108,Yegorlykskaya,RU,2022-04-16 23:52:00,46.5656,40.6562,47.97,76,94,6.24
109,Diego De Almagro,CL,2022-04-16 23:51:28,-26.3667,-70.05,58.06,47,0,0.81
110,Praia Da Vitoria,PT,2022-04-16 23:52:01,38.7333,-27.0667,59.25,94,40,8.41
111,Victoria,HK,2022-04-16 23:48:26,22.2855,114.1577,70.18,82,100,11.01
112,Mar Del Plata,AR,2022-04-16 23:48:12,-38.0023,-57.5575,64.09,93,0,10.0
113,Honiara,SB,2022-04-16 23:50:48,-9.4333,159.95,85.23,68,100,3.76
114,Chokurdakh,RU,2022-04-16 23:47:05,70.6333,147.9167,2.64,92,88,2.66
115,Halifax,CA,2022-04-16 23:49:09,44.6453,-63.5724,49.89,64,100,24.16
116,Bubaque,GW,2022-04-16 23:48:35,11.2833,-15.8333,75.25,74,7,24.29
117,Port Shepstone,ZA,2022-04-16 23:52:02,-30.7414,30.455,62.96,82,100,3.56
118,Zhigansk,RU,2022-04-16 23:48:54,66.7697,123.3711,7.68,98,90,11.99
119,Sechura,PE,2022-04-16 23:52:02,-5.5569,-80.8222,71.11,71,18,18.12
120,Campoverde,PE,2022-04-16 23:52:03,-8.4753,-74.8058,82.09,75,73,1.59
121,Elk Grove,US,2022-04-16 23:51:50,38.4088,-121.3716,70.92,56,20,11.5
122,Chara,RU,2022-04-16 23:52:03,56.9064,118.2631,16.2,72,100,2.64
123,Leh,IN,2022-04-16 23:52:03,34.1667,77.5833,32.72,47,0,6.04
124,Los Llanos De Aridane,ES,2022-04-16 23:52:04,28.6585,-17.9182,62.35,77,0,12.66
125,Lingyuan,CN,2022-04-16 23:52:04,41.24,119.4011,58.51,18,21,7.02
126,Svetlogorsk,BY,2022-04-16 23:52:04,52.6333,29.7333,34.38,96,100,13.13
127,Yeppoon,AU,2022-04-16 23:52:05,-23.1333,150.7333,74.98,61,2,11.48
128,Port Elizabeth,ZA,2022-04-16 23:46:01,-33.918,25.5701,63.32,84,20,10.36
129,Hobart,AU,2022-04-16 23:44:58,-42.8794,147.3294,67.26,69,0,6.91
130,Bengkulu,ID,2022-04-16 23:49:52,-3.8004,102.2655,77.56,86,100,3.8
131,Adwa,ET,2022-04-16 23:52:05,14.1646,38.8955,65.82,63,86,6.4
132,Hithadhoo,MV,2022-04-16 23:52:06,-0.6,73.0833,83.21,64,85,7.0
133,Piranshahr,IR,2022-04-16 23:52:06,36.701,45.1413,41.74,78,26,3.53
134,Myitkyina,MM,2022-04-16 23:52:07,25.3833,97.4,72.34,72,99,2.86
135,Miranda,CO,2022-04-16 23:52:07,3.2499,-76.2281,73.53,96,100,1.68
136,Mirabad,AF,2022-04-16 23:52:07,30.4362,61.8383,69.48,34,45,11.88
137,Oriximina,BR,2022-04-16 23:52:08,-1.7656,-55.8661,75.61,94,95,0.49
138,Puerto Ayora,EC,2022-04-16 23:47:20,-0.7393,-90.3518,75.94,88,55,7.23
139,Deputatskiy,RU,2022-04-16 23:52:08,69.3,139.9,8.94,90,100,3.6
140,Smithers,CA,2022-04-16 23:52:08,54.7804,-127.1743,48.52,18,20,5.75
141,Ilulissat,GL,2022-04-16 23:47:18,69.2167,-51.1,-5.49,93,9,5.23
142,Bambous Virieux,MU,2022-04-16 23:47:23,-20.3428,57.7575,77.25,88,40,10.36
143,Hatillo,PR,2022-04-16 23:53:09,18.4863,-66.8254,77.79,89,100,1.01
144,Baykit,RU,2022-04-16 23:53:09,61.67,96.37,38.55,98,100,4.45
145,Barreirinhas,BR,2022-04-16 23:53:10,-2.7469,-42.8264,77.54,85,47,3.2
146,Hokitika,NZ,2022-04-16 23:53:10,-42.7167,170.9667,61.97,59,95,3.91
147,Nanortalik,GL,2022-04-16 23:53:10,60.1432,-45.2371,29.19,85,24,10.2
148,Baracoa,CU,2022-04-16 23:53:11,20.3467,-74.4958,72.59,81,100,3.04
149,Alice Springs,AU,2022-04-16 23:49:00,-23.7,133.8833,81.95,26,75,6.91
150,Palu,ID,2022-04-16 23:53:11,-0.8917,119.8707,77.32,94,100,1.34
151,Ahuimanu,US,2022-04-16 23:53:11,21.4447,-157.8378,78.85,79,100,5.99
152,Kuytun,RU,2022-04-16 23:53:12,54.3419,101.5036,43.66,75,86,4.7
153,Mehamn,NO,2022-04-16 23:53:12,71.0357,27.8492,37.51,92,100,31.36
154,Prado,BR,2022-04-16 23:53:12,-17.3411,-39.2208,76.14,73,100,9.86
155,High Level,CA,2022-04-16 23:53:13,58.5169,-117.136,28.51,69,100,14.97
156,Presidencia Roque Saenz Pena,AR,2022-04-16 23:53:13,-26.7852,-60.4388,62.83,73,84,5.75
157,Kavieng,PG,2022-04-16 23:53:13,-2.5744,150.7967,83.79,74,36,9.82
158,Cayenne,GF,2022-04-16 23:53:14,4.9333,-52.3333,81.09,1,20,8.01
159,El Prat De Llobregat,ES,2022-04-16 23:53:14,41.3278,2.0947,65.03,78,0,4.61
160,Salinas,US,2022-04-16 23:48:51,36.6777,-121.6555,65.01,70,0,14.97
161,Taltal,CL,2022-04-16 23:53:15,-25.4,-70.4833,63.23,73,18,5.14
162,Chongqing,CN,2022-04-16 23:53:15,29.5628,106.5528,57.09,97,100,8.95
163,Lagoa,PT,2022-04-16 23:53:15,39.05,-27.9833,58.57,76,10,13.53
164,Pierre,US,2022-04-16 23:51:37,44.3683,-100.351,46.06,30,0,7.0
165,Lahat,ID,2022-04-16 23:53:16,-3.8,103.5333,74.16,98,99,1.59
166,Provideniya,RU,2022-04-16 23:46:09,64.3833,-173.3,32.59,92,92,11.83
167,Severo-Kurilsk,RU,2022-04-16 23:53:16,50.6789,156.125,32.09,76,100,8.14
168,Ranfurly,NZ,2022-04-16 23:53:16,-45.1333,170.1,50.11,74,92,5.75
169,Pudozh,RU,2022-04-16 23:53:17,61.8099,36.5345,21.15,97,52,1.03
170,Qaanaaq,GL,2022-04-16 23:45:57,77.484,-69.3632,-16.89,74,35,6.22
171,Mumford,GH,2022-04-16 23:53:17,5.2618,-0.759,78.67,84,100,6.02
172,Rantepao,ID,2022-04-16 23:53:17,-2.9701,119.8978,69.28,96,100,2.1
173,Puerto Suarez,BO,2022-04-16 23:53:18,-18.95,-57.8,74.01,60,22,4.7
174,Tiksi,RU,2022-04-16 23:53:18,71.6872,128.8694,-0.6,94,75,5.53
175,Kruisfontein,ZA,2022-04-16 23:53:18,-34.0033,24.7314,59.88,87,97,3.4
176,Upernavik,GL,2022-04-16 23:53:19,72.7868,-56.1549,-13.04,99,35,9.24
177,Harper,LR,2022-04-16 23:53:19,4.375,-7.7169,78.24,86,95,4.38
178,Kahului,US,2022-04-16 23:53:19,20.8947,-156.47,77.02,74,40,24.16
179,Mahebourg,MU,2022-04-16 23:53:20,-20.4081,57.7,77.29,88,40,10.36
180,Kasongo,CD,2022-04-16 23:53:20,-4.45,26.6667,67.21,97,87,1.12
181,Chulym,RU,2022-04-16 23:53:20,55.0997,80.9572,47.43,61,98,7.11
182,Lakes Entrance,AU,2022-04-16 23:49:11,-37.8811,147.981,69.3,52,41,5.32
183,Palmer,US,2022-04-16 23:48:46,42.1584,-72.3287,48.09,81,100,14.97
184,Bayonet Point,US,2022-04-16 23:53:21,28.3267,-82.6834,79.18,84,7,3.0
185,San Antonio,US,2022-04-16 23:50:12,29.4241,-98.4936,88.32,59,0,8.05
186,Nouadhibou,MR,2022-04-16 23:54:21,20.931,-17.0347,64.38,94,75,14.97
187,Coihaique,CL,2022-04-16 23:50:43,-45.5752,-72.0662,52.41,81,0,0.0
188,Tairua,NZ,2022-04-16 23:54:22,-37.0167,175.85,66.24,70,100,15.86
189,Cachoeiras De Macacu,BR,2022-04-16 23:54:22,-22.4625,-42.6531,64.0,95,27,2.08
190,Kieta,PG,2022-04-16 23:54:23,-6.2167,155.6333,83.88,72,99,3.98
191,Cherskiy,RU,2022-04-16 23:47:09,68.75,161.3,21.24,90,100,11.65
192,Selikhino,RU,2022-04-16 23:54:23,50.3672,137.4996,34.25,92,100,5.06
193,Sitka,US,2022-04-16 23:48:37,57.0531,-135.33,44.49,53,40,8.05
194,Arraial Do Cabo,BR,2022-04-16 23:46:43,-22.9661,-42.0278,73.26,78,0,11.5
195,Thompson,CA,2022-04-16 23:54:24,55.7435,-97.8558,26.76,36,75,6.91
196,Parnamirim,BR,2022-04-16 23:54:24,-5.9156,-35.2628,82.74,83,20,6.91
197,Grand Gaube,MU,2022-04-16 23:54:24,-20.0064,57.6608,77.4,84,30,8.01
198,Ekhabi,RU,2022-04-16 23:54:24,53.5102,142.9671,30.65,80,100,10.98
199,Nome,US,2022-04-16 23:53:29,64.5011,-165.4064,34.16,77,100,14.29
200,Bonthe,SL,2022-04-16 23:54:25,7.5264,-12.505,78.26,80,89,3.51
201,West Fargo,US,2022-04-16 23:50:49,46.875,-96.9004,32.02,50,0,12.66
202,Katherine,AU,2022-04-16 23:54:25,-14.4667,132.2667,82.72,57,81,5.75
203,Estevan,CA,2022-04-16 23:54:26,49.1334,-102.9842,25.14,63,0,10.36
204,Beringovskiy,RU,2022-04-16 23:54:26,63.05,179.3167,31.64,98,100,19.22
205,Stolin,BY,2022-04-16 23:54:26,51.8912,26.846,36.36,85,81,12.12
206,Yola,NG,2022-04-16 23:54:27,9.2,12.4833,90.54,43,16,4.99
207,Harboore,DK,2022-04-16 23:54:27,56.6175,8.1807,41.99,68,81,6.8
208,Penzance,GB,2022-04-16 23:54:27,50.1186,-5.5371,52.29,89,98,14.27
209,Prince Rupert,CA,2022-04-16 23:54:28,54.3161,-130.3201,48.29,49,0,11.5
210,Meiganga,CM,2022-04-16 23:54:28,6.5167,14.3,72.21,72,80,1.7
211,Dikson,RU,2022-04-16 23:48:36,73.5069,80.5464,6.22,95,100,15.01
212,Dingle,PH,2022-04-16 23:46:00,10.9995,122.6711,80.71,79,62,7.34
213,Turukhansk,RU,2022-04-16 23:54:28,65.8167,87.9833,26.62,97,100,18.52
214,Lompoc,US,2022-04-16 23:53:26,34.6391,-120.4579,72.01,69,20,13.8
215,Lucapa,AO,2022-04-16 23:54:29,-8.4192,20.7447,66.06,94,34,2.1
216,Filadelfia,US,2022-04-16 23:49:43,39.9523,-75.1638,68.22,66,100,19.57
217,Touros,BR,2022-04-16 23:54:29,-5.1989,-35.4608,79.21,84,87,6.26
218,Komsomolskiy,UZ,2022-04-16 23:54:30,40.4272,71.7189,61.52,41,39,9.22
219,Qaqortoq,GL,2022-04-16 23:53:29,60.7167,-46.0333,27.19,88,7,3.27
220,Tromso,NO,2022-04-16 23:54:30,69.6496,18.957,41.38,81,100,9.22
221,Makow Mazowiecki,PL,2022-04-16 23:54:30,52.8649,21.1005,35.6,84,58,7.34
222,Richards Bay,ZA,2022-04-16 23:54:31,-28.783,32.0377,63.12,90,100,5.84
223,Buenos Aires,AR,2022-04-16 23:50:54,-34.6132,-58.3772,65.95,72,75,9.22
224,Katobu,ID,2022-04-16 23:54:31,-4.9408,122.5276,80.71,85,82,2.71
225,Kroya,ID,2022-04-16 23:54:31,-7.6331,109.2461,79.0,86,83,2.8
226,Olinda,BR,2022-04-16 23:54:32,-8.0089,-34.8553,83.93,79,40,5.75
227,Yulara,AU,2022-04-16 23:54:32,-25.2406,130.9889,71.44,49,6,11.5
228,Paysandu,UY,2022-04-16 23:52:40,-32.3214,-58.0756,62.6,71,53,6.22
229,Karwar,IN,2022-04-16 23:55:32,14.8,74.1333,80.1,82,41,3.56
230,Massena,US,2022-04-16 23:55:33,44.9281,-74.8919,43.05,64,100,3.91
231,Buala,SB,2022-04-16 23:55:33,-8.145,159.5921,82.47,75,96,4.14
232,Port Lincoln,AU,2022-04-16 23:55:34,-34.7333,135.8667,66.11,80,100,10.09
233,Tandil,AR,2022-04-16 23:55:34,-37.3217,-59.1332,53.69,66,76,2.37
234,Biak,ID,2022-04-16 23:46:05,-0.9131,122.8766,79.68,81,97,3.09
235,Abu Kamal,SY,2022-04-16 23:55:34,34.4506,40.9171,64.58,25,44,7.09
236,Torbay,CA,2022-04-16 23:45:55,47.6666,-52.7314,47.39,53,40,26.46
237,Puerto Padre,CU,2022-04-16 23:55:35,21.195,-76.6028,73.9,79,100,7.72
238,Flinders,AU,2022-04-16 23:55:35,-34.5833,150.8552,72.37,74,2,10.0
239,Klaksvik,FO,2022-04-16 23:54:28,62.2266,-6.589,47.32,95,100,23.82
240,Ordzhonikidze,KZ,2022-04-16 23:55:36,52.4411,61.7408,38.84,84,2,8.12
241,Kaka,TM,2022-04-16 23:55:36,37.3482,59.6143,62.28,49,76,6.69
242,Zaysan,KZ,2022-04-16 23:55:36,47.4667,84.8667,45.79,25,0,3.2
243,Katrineholm,SE,2022-04-16 23:55:37,58.9959,16.2072,44.73,69,100,4.79
244,Moose Factory,CA,2022-04-16 23:55:37,51.2585,-80.6094,32.0,86,100,9.22
245,Raja Sansi,IN,2022-04-16 23:55:37,31.7192,74.7978,75.06,49,18,0.0
246,Peniche,PT,2022-04-16 23:47:47,39.3558,-9.3811,56.28,91,91,13.62
247,Katsuura,JP,2022-04-16 23:55:21,35.1333,140.3,57.67,59,99,11.12
248,Ruteng,ID,2022-04-16 23:55:38,-8.6136,120.4721,69.13,82,14,0.76
249,Tessalit,ML,2022-04-16 23:55:38,20.1986,1.0114,73.08,21,94,9.64
250,Goderich,CA,2022-04-16 23:55:38,43.7501,-81.7165,34.12,64,69,8.05
251,Lazurne,UA,2022-04-16 23:55:39,46.084,32.5295,45.95,92,50,4.56
252,Kangaatsiaq,GL,2022-04-16 23:55:39,68.3065,-53.4641,-0.4,98,80,4.12
253,Vardo,NO,2022-04-16 23:55:39,70.3705,31.1107,38.75,83,100,28.07
254,Tukrah,LY,2022-04-16 23:55:40,32.5341,20.5791,61.79,90,89,5.5
255,Nalut,LY,2022-04-16 23:55:40,30.3333,10.85,55.06,68,27,8.39
256,Nsanje,MW,2022-04-16 23:55:40,-16.92,35.262,71.47,98,12,2.89
257,Mount Gambier,AU,2022-04-16 23:55:40,-37.8333,140.7667,71.51,35,40,17.27
258,Yellowknife,CA,2022-04-16 23:45:58,62.456,-114.3525,14.56,48,20,8.05
259,Kulhudhuffushi,MV,2022-04-16 23:55:41,6.6221,73.07,83.7,73,65,7.36
260,Santa Rosa,PH,2022-04-16 23:55:41,14.3122,121.1114,83.08,73,83,9.64
261,Kuhdasht,IR,2022-04-16 23:55:41,33.535,47.6061,47.57,36,0,4.63
262,Carnarvon,AU,2022-04-16 23:45:53,-24.8667,113.6333,73.47,78,100,13.8
263,Senneterre,CA,2022-04-16 23:55:42,48.3835,-77.2328,28.0,83,100,3.87
264,Saint-Francois,FR,2022-04-16 23:55:42,46.4154,3.9054,50.68,65,0,4.61
265,Kloulklubed,PW,2022-04-16 23:55:42,7.0419,134.2556,82.27,73,49,1.52
266,Ambovombe,MG,2022-04-16 23:55:43,-25.1667,46.0833,71.92,90,5,4.97
267,Miles City,US,2022-04-16 23:55:43,46.4083,-105.8406,33.89,75,83,21.65
268,Mackay,AU,2022-04-16 23:53:10,-21.15,149.2,79.68,73,16,13.8
269,Narsaq,GL,2022-04-16 23:48:37,60.9167,-46.05,35.82,87,6,3.38
270,Nikolskoye,RU,2022-04-16 23:47:08,59.7035,30.7861,34.81,81,81,3.18
271,Hvolsvollur,IS,2022-04-16 23:55:44,63.7533,-20.2243,46.45,95,100,8.86
272,Bobo Dioulasso,BF,2022-04-16 23:55:44,11.1771,-4.2979,74.98,68,100,1.79
273,Mangaluru,IN,2022-04-16 23:53:59,12.8667,74.8833,76.06,88,20,3.44
274,Ahipara,NZ,2022-04-16 23:55:45,-35.1667,173.1667,68.4,69,100,15.48
275,Juneau,US,2022-04-16 23:51:04,58.3019,-134.4197,44.83,60,100,10.36
276,At-Bashi,KG,2022-04-16 23:56:45,41.1702,75.8106,42.66,50,14,4.14
277,Ripoll,ES,2022-04-16 23:56:45,42.2006,2.1903,57.58,44,46,4.0
278,Mareeba,AU,2022-04-16 23:56:46,-17.0,145.4333,78.48,73,99,5.64
279,Nabire,ID,2022-04-16 23:55:06,-3.3667,135.4833,82.42,79,91,1.5
280,Phan Thiet,VN,2022-04-16 23:51:54,10.9333,108.1,79.47,80,10,6.96
281,Caninde,BR,2022-04-16 23:56:46,-4.3589,-39.3117,73.06,96,85,0.89
282,Kishi,NG,2022-04-16 23:56:47,9.0833,3.85,78.39,67,71,5.79
283,Marienburg,PL,2022-04-16 23:56:47,54.0359,19.0266,35.89,91,75,6.44
284,Kabul,AF,2022-04-16 23:56:47,34.5,69.4167,60.37,25,97,0.89
285,Saurimo,AO,2022-04-16 23:56:47,-9.6608,20.3916,64.42,98,78,3.62
286,Auki,SB,2022-04-16 23:53:51,-8.7676,160.7034,85.51,65,85,1.95
287,Providencia,MX,2022-04-16 23:56:48,28.7167,-111.5833,92.21,27,100,10.27
288,Camacha,PT,2022-04-16 23:56:48,33.0833,-16.3333,60.22,82,20,5.75
289,Najran,SA,2022-04-16 23:56:49,17.4924,44.1277,81.25,30,91,4.14
290,Rawlins,US,2022-04-16 23:56:49,41.7911,-107.2387,50.36,41,100,22.19
291,Pimentel,PE,2022-04-16 23:56:49,-6.8367,-79.9342,68.29,73,0,24.16
292,Dengzhou,CN,2022-04-16 23:56:50,37.8086,120.7508,54.54,43,4,12.97
293,Portland,US,2022-04-16 23:45:12,45.5234,-122.6762,54.52,63,75,8.99
294,Ponta Do Sol,PT,2022-04-16 23:54:10,32.6667,-17.1,72.23,38,100,6.93
295,Christchurch,NZ,2022-04-16 23:54:42,-43.5333,172.6333,56.48,86,100,10.36
296,Domingos Martins,BR,2022-04-16 23:56:50,-20.3633,-40.6592,68.81,93,96,2.44
297,Fontem,CM,2022-04-16 23:56:51,5.4685,9.8818,68.58,91,49,1.79
298,Porangatu,BR,2022-04-16 23:56:51,-13.4408,-49.1486,73.47,92,99,2.55
299,Ulladulla,AU,2022-04-16 23:56:51,-35.35,150.4667,67.1,58,7,7.25
300,Yatou,CN,2022-04-16 23:56:52,37.15,122.3833,59.07,31,0,10.2
301,Vanino,RU,2022-04-16 23:56:52,49.0869,140.2543,36.07,90,100,1.32
302,Plouzane,FR,2022-04-16 23:56:52,48.3833,-4.6167,55.45,79,0,5.75
303,Kaitangata,NZ,2022-04-16 23:54:21,-46.2817,169.8464,53.8,56,80,7.65
304,Hinton,CA,2022-04-16 23:56:53,53.4001,-117.5857,32.74,59,100,5.21
305,Kabwe,ZM,2022-04-16 23:56:53,-14.4469,28.4464,63.16,94,92,4.47
306,La Rochelle,FR,2022-04-16 23:56:53,46.1667,-1.15,55.47,71,0,10.36
307,Ayolas,PY,2022-04-16 23:56:54,-27.4,-56.9,57.56,86,10,6.35
308,Mana,GF,2022-04-16 23:56:54,5.6592,-53.7767,77.7,87,92,9.78
309,Ilula,TZ,2022-04-16 23:56:54,-7.6766,36.0366,61.83,98,100,4.07
310,Lahij,YE,2022-04-16 23:56:55,13.1667,44.5833,78.1,43,11,0.63
311,Losone,CH,2022-04-16 23:56:55,46.1687,8.7593,55.96,70,21,2.71
312,Preobrazheniye,RU,2022-04-16 23:56:55,42.9019,133.9064,46.96,38,62,6.26
313,Waingapu,ID,2022-04-16 23:56:56,-9.6567,120.2641,83.01,78,55,6.6
314,Camana,PE,2022-04-16 23:54:11,-16.6228,-72.7111,67.5,82,94,8.41
315,Bulanash,RU,2022-04-16 23:56:56,57.2783,61.9965,28.4,85,31,7.09
316,San Cristobal,VE,2022-04-16 23:53:05,7.7669,-72.225,77.18,96,100,4.09
317,Chacaltianguis,MX,2022-04-16 23:56:56,18.3333,-95.8333,89.76,46,30,13.44
318,Podyuga,RU,2022-04-16 23:57:57,61.095,40.8647,18.79,98,22,2.82
319,Ellensburg,US,2022-04-16 23:57:57,46.9965,-120.5479,46.85,84,100,12.66
320,Zigong,CN,2022-04-16 23:57:57,29.3416,104.7769,52.34,93,100,5.3
321,Tallahassee,US,2022-04-16 23:54:01,30.4383,-84.2807,76.08,83,81,4.85
322,Carballo,ES,2022-04-16 23:57:58,43.213,-8.691,56.55,89,80,3.02
323,Fairbanks,US,2022-04-16 23:54:08,64.8378,-147.7164,35.24,31,0,9.22
324,Bethel,US,2022-04-16 23:53:25,41.3712,-73.414,52.16,85,94,5.01
325,Imeni Poliny Osipenko,RU,2022-04-16 23:55:11,52.4201,136.4853,29.62,85,99,17.65
326,Nibbar,TN,2022-04-16 23:57:58,36.2941,8.7666,48.88,87,40,4.61
327,Sagu,RO,2022-04-16 23:57:59,46.05,21.2833,41.43,56,0,18.41
328,Padang,ID,2022-04-16 23:57:59,-0.9492,100.3543,75.25,83,83,3.78
329,Levelland,US,2022-04-16 23:57:59,33.5873,-102.378,68.2,17,93,8.39
330,Virginia Beach,US,2022-04-16 23:57:50,36.8529,-75.978,71.06,71,100,11.7
331,Balkhash,KZ,2022-04-16 23:58:00,46.844,74.9804,47.48,37,57,11.99
332,Middelburg,ZA,2022-04-16 23:58:00,-25.7751,29.4648,52.57,92,100,12.57
333,Tura,IN,2022-04-16 23:54:14,25.5198,90.2201,70.25,93,40,7.11
334,Nanae,JP,2022-04-16 23:58:00,41.8833,140.6833,50.23,62,75,10.36
335,College,US,2022-04-16 23:48:33,64.8569,-147.8028,35.55,31,40,11.5
336,Pevek,RU,2022-04-16 23:58:01,69.7008,170.3133,7.38,90,100,7.23
337,Dongning,CN,2022-04-16 23:58:01,44.0622,131.1207,50.31,28,40,6.62
338,Aitape,PG,2022-04-16 23:58:02,-3.1374,142.3475,84.79,68,61,2.06
339,Lorengau,PG,2022-04-16 23:58:02,-2.0226,147.2712,84.63,71,32,5.57
340,Altay,CN,2022-04-16 23:58:02,47.8667,88.1167,41.95,33,0,7.85
341,Hirosaki,JP,2022-04-16 23:58:03,40.5931,140.4725,57.67,54,23,11.27
342,Viedma,AR,2022-04-16 23:58:03,-40.8135,-62.9967,57.24,75,2,11.27
343,Dar Es Salaam,TZ,2022-04-16 23:58:03,-6.8235,39.2695,75.58,94,75,9.22
344,Wenling,CN,2022-04-16 23:58:03,28.3669,121.36,54.48,72,100,5.32
345,Acari,PE,2022-04-16 23:58:04,-15.4311,-74.6158,70.12,76,92,3.15
346,Zhezkazgan,KZ,2022-04-16 23:58:04,47.8043,67.7144,52.54,64,71,18.5
347,Berlevag,NO,2022-04-16 23:58:05,70.8578,29.0864,37.2,89,100,32.48
348,Sao Joao Da Barra,BR,2022-04-16 23:58:05,-21.6403,-41.0511,70.45,73,57,11.56
349,East London,ZA,2022-04-16 23:58:05,-33.0153,27.9116,62.28,78,100,7.09
350,Port Augusta,AU,2022-04-16 23:53:53,-32.5,137.7667,76.44,31,55,9.84
351,Lufilufi,WS,2022-04-16 23:58:06,-13.8745,-171.5986,87.58,75,10,16.06
352,Vicosa,BR,2022-04-16 23:54:59,-20.7539,-42.8819,62.19,83,0,4.45
353,Hami,CN,2022-04-16 23:53:43,42.8,93.45,51.12,25,1,7.49
354,Sao Miguel Do Tapuio,BR,2022-04-16 23:58:06,-5.5036,-41.3233,72.21,94,62,3.13
355,Wilmington,US,2022-04-16 23:55:55,34.2257,-77.9447,69.01,78,100,1.01
356,Sao Filipe,CV,2022-04-16 23:58:07,14.8961,-24.4956,70.79,79,43,7.65
357,Chulman,RU,2022-04-16 23:58:07,56.8479,124.9104,17.2,93,100,2.24
358,Lasa,IT,2022-04-16 23:48:27,46.6166,10.7002,43.68,80,33,7.05
359,Fuengirola,ES,2022-04-16 23:58:07,36.54,-4.6247,66.85,55,0,1.14
360,Rudsar,IR,2022-04-16 23:58:08,37.1376,50.288,52.41,68,71,3.24
361,Teknaf,BD,2022-04-16 23:58:08,20.8624,92.3058,78.94,89,68,3.89
362,Aden,YE,2022-04-16 23:58:08,12.7794,45.0367,81.43,78,12,9.95
363,Aksarka,RU,2022-04-16 23:58:09,66.5606,67.7975,3.4,96,100,1.48
364,Gat,IL,2022-04-16 23:59:03,31.61,34.7642,67.41,36,44,4.41
365,Kinsale,IE,2022-04-16 23:59:09,51.7075,-8.5306,51.24,100,100,11.5
366,Gilgit,PK,2022-04-16 23:59:09,35.9221,74.3087,58.71,33,28,4.47
367,Faanui,PF,2022-04-16 23:59:10,-16.4833,-151.75,81.18,73,7,12.95
368,Emerald,AU,2022-04-16 23:59:10,-23.5333,148.1667,75.34,53,0,11.5
369,Kingman,US,2022-04-16 23:59:11,35.1894,-114.053,77.18,16,0,25.99
370,Jiaxing,CN,2022-04-16 23:59:11,30.7522,120.75,54.48,67,54,4.65
371,Nakamura,JP,2022-04-16 23:59:11,32.9833,132.9333,62.94,51,98,0.47
372,Ozark,US,2022-04-16 23:58:26,37.0209,-93.206,56.37,50,100,5.99
373,Gornopravdinsk,RU,2022-04-16 23:59:12,60.05,69.9,28.78,98,94,3.29
374,Broome,US,2022-04-16 23:59:12,42.2506,-75.833,41.9,80,100,1.01
375,Iberia,US,2022-04-16 23:59:12,29.9502,-91.7507,80.58,87,36,9.19
376,Skjervoy,NO,2022-04-16 23:59:12,70.0311,20.9714,42.8,85,100,33.73
377,Lamu,KE,2022-04-16 23:56:23,-2.2717,40.902,82.06,76,93,12.8
378,Bijie,CN,2022-04-16 23:59:13,27.3125,105.2942,42.49,95,100,4.79
379,Bilma,NE,2022-04-16 23:59:13,18.6853,12.9164,85.33,10,30,8.57
380,Ixtapa,MX,2022-04-16 23:54:25,20.7,-105.2,85.73,32,100,3.98
381,Tanout,NE,2022-04-16 23:59:14,14.9709,8.8879,81.52,12,95,7.23
382,Hun,LY,2022-04-16 23:59:14,29.1268,15.9477,63.75,60,9,13.33
383,Cuamba,MZ,2022-04-16 23:59:14,-14.8031,36.5372,66.47,98,1,2.89
384,Tommot,RU,2022-04-16 23:59:15,58.9564,126.2925,29.37,77,98,2.57
385,Nanakuli,US,2022-04-16 23:59:15,21.3906,-158.1547,79.11,68,100,17.52
386,Vieques,PR,2022-04-16 23:59:15,18.425,-65.8329,79.09,82,88,15.28
387,Japura,ID,2022-04-16 23:57:53,-0.3167,102.35,75.13,98,100,1.25
388,Minervino Murge,IT,2022-04-16 23:59:16,41.0843,16.0784,55.26,84,100,13.51
389,Olsztyn,PL,2022-04-16 23:59:16,53.7799,20.4942,33.76,89,83,4.79
390,Oskemen,KZ,2022-04-16 23:59:16,49.9565,82.6119,31.96,80,0,0.0
391,Netanya,IL,2022-04-16 23:59:17,32.3329,34.8599,62.04,44,64,8.34
392,Kodinsk,RU,2022-04-16 23:59:17,58.6881,99.1844,40.14,96,100,5.41
393,Pangoa,PE,2022-04-16 23:59:17,-12.1167,-73.0,71.44,85,89,1.83
394,Ust-Nera,RU,2022-04-16 23:54:23,64.5667,143.2,17.76,87,94,2.51
395,Leningradskiy,RU,2022-04-16 23:54:31,69.3833,178.4167,11.97,89,68,9.26
396,Luena,AO,2022-04-16 23:55:52,-11.7833,19.9167,60.55,98,68,3.38
397,Tomatlan,MX,2022-04-16 23:59:18,19.9333,-105.25,86.16,34,100,4.21
398,Yerofey Pavlovich,RU,2022-04-16 23:59:18,53.9667,121.9667,30.49,45,46,4.52
399,Salo,IT,2022-04-16 23:59:18,45.6086,10.531,56.32,74,33,7.38
400,Marsa Matruh,EG,2022-04-16 23:56:08,31.3525,27.2453,70.0,52,0,11.5
401,Thai Binh,VN,2022-04-16 23:59:19,20.45,106.3333,67.82,85,100,6.51
402,Udachnyy,RU,2022-04-16 23:59:19,66.4167,112.4,28.45,86,100,18.28
403,Charcas,MX,2022-04-16 23:59:19,23.1333,-101.1167,83.79,7,83,6.62
404,Mount Pleasant,US,2022-04-16 23:58:52,32.7941,-79.8626,72.0,93,20,5.99
405,Iskilip,TR,2022-04-16 23:59:20,40.7353,34.4739,53.58,51,98,0.96
406,Sainte-Anne-Des-Monts,CA,2022-04-16 23:59:20,49.124,-66.4924,40.87,60,32,17.27
407,San Jose,US,2022-04-16 23:55:10,37.3394,-121.895,66.99,59,40,16.11
408,Kamaishi,JP,2022-04-16 23:59:20,39.2667,141.8833,49.42,53,1,5.91
409,Kailua,US,2022-04-16 23:59:21,21.4022,-157.7394,79.14,82,100,7.0
410,Makat,KZ,2022-04-16 23:59:21,47.6469,53.3463,54.36,66,78,2.53
411,Moranbah,AU,2022-04-16 23:55:31,-22.0016,148.0466,75.87,47,31,15.14
412,Shelburne,CA,2022-04-16 23:59:21,44.0787,-80.2041,30.65,74,100,9.28
413,Verkhnevilyuysk,RU,2022-04-17 00:00:01,63.4453,120.3167,23.59,81,87,6.08
414,Manggar,ID,2022-04-17 00:00:22,-2.8833,108.2667,82.29,71,60,0.96
415,Chauk,MM,2022-04-17 00:00:23,20.8833,94.8167,81.79,69,13,9.55
416,Vila,PT,2022-04-17 00:00:24,42.0304,-8.1588,47.7,87,79,2.73
417,Balkanabat,TM,2022-04-17 00:00:24,39.5108,54.3671,55.6,74,100,7.27
418,Plaridel,PH,2022-04-17 00:00:25,14.8872,120.8572,82.11,64,66,6.13
419,Ghanzi,BW,2022-04-17 00:00:26,-21.5667,21.7833,64.83,82,77,10.25
420,Verkhnyaya Inta,RU,2022-04-17 00:00:26,65.9811,60.3094,13.17,96,100,6.2
421,Huarmey,PE,2022-04-17 00:00:27,-10.0681,-78.1522,68.34,81,82,11.18
422,Falun,SE,2022-04-17 00:00:27,60.6036,15.626,41.95,76,100,2.53
423,Acapulco,MX,2022-04-16 23:58:37,16.8634,-99.8901,83.16,54,8,10.38
424,Westport,US,2022-04-16 23:58:19,41.1415,-73.3579,57.2,75,40,17.27
425,Berat,AL,2022-04-17 00:00:27,40.7058,19.9522,60.12,71,100,6.13
426,Gyal,HU,2022-04-17 00:00:28,47.3845,19.2214,45.7,63,0,4.61
427,Bosaso,SO,2022-04-17 00:00:28,11.2842,49.1816,83.68,61,4,7.7
428,Saint-Georges,GD,2022-04-17 00:00:28,12.0564,-61.7485,78.73,78,9,18.14
429,Port-Cartier,CA,2022-04-17 00:00:29,50.0334,-66.8654,31.03,85,40,5.77
430,La Rioja,ES,2022-04-17 00:00:29,42.25,-2.5,42.58,73,0,5.21
431,Diu,IN,2022-04-17 00:00:29,20.7141,70.9822,77.43,73,0,10.54
432,Tambilil,PH,2022-04-17 00:00:30,5.9622,124.6697,82.81,76,49,1.54
433,Ambilobe,MG,2022-04-17 00:00:30,-13.2,49.05,69.93,90,2,3.44
434,Sanmenxia,CN,2022-04-17 00:00:30,34.7747,111.1814,53.53,52,100,4.27
435,Hit,IQ,2022-04-17 00:00:31,33.6416,42.8251,65.91,23,14,9.57
436,Chama,CH,2022-04-17 00:00:31,47.1821,8.4636,46.44,66,6,1.14
437,Gewane,ET,2022-04-17 00:00:32,10.1664,40.6453,83.73,45,72,1.3
438,Sura,RU,2022-04-17 00:00:32,53.8879,45.7419,47.97,84,100,9.75
439,Mount Isa,AU,2022-04-17 00:00:32,-20.7333,139.5,85.77,19,32,12.66
440,Caravelas,BR,2022-04-17 00:00:33,-17.7125,-39.2481,77.65,67,100,10.45
441,Jalu,LY,2022-04-16 23:56:46,29.0331,21.5482,71.94,34,66,14.97
442,Chicama,PE,2022-04-17 00:00:33,-7.8447,-79.1469,68.68,78,46,7.72
443,Fallon,US,2022-04-17 00:00:34,39.4735,-118.7774,56.82,33,38,28.79
444,Anloga,GH,2022-04-17 00:00:34,5.7947,0.8973,82.49,78,49,10.2
445,San Andres,CO,2022-04-17 00:00:34,12.5847,-81.7006,79.95,78,36,12.57
446,Comodoro Rivadavia,AR,2022-04-16 23:56:06,-45.8667,-67.5,55.26,71,0,13.8
447,Vila Velha,BR,2022-04-16 23:59:47,-20.3297,-40.2925,75.15,76,0,11.5
448,Nizhnyaya Tavda,RU,2022-04-17 00:00:35,57.6731,66.1725,31.69,88,40,8.5
449,Joutseno,FI,2022-04-17 00:00:35,61.118,28.5076,27.77,60,70,4.07
450,Chegdomyn,RU,2022-04-17 00:00:36,51.1167,133.0167,31.41,88,100,3.83
451,Vostok,RU,2022-04-17 00:00:36,46.4856,135.8833,36.57,56,3,14.81
452,Wilmington Island,US,2022-04-17 00:00:36,32.0036,-80.9737,73.49,61,100,2.66
453,Kyra,RU,2022-04-17 00:00:37,49.5776,111.9753,37.98,56,50,4.63
454,Manta,EC,2022-04-17 00:00:37,-0.95,-80.7333,73.45,85,67,9.06
455,Whitehorse,CA,2022-04-17 00:00:07,60.7161,-135.0538,36.1,87,100,7.27
456,Astoria,US,2022-04-17 00:00:17,46.1879,-123.8313,50.56,75,41,8.01
457,Palau,PW,2022-04-17 00:00:38,7.503,134.621,82.09,72,70,1.45
458,Wiarton,CA,2022-04-17 00:00:38,44.7407,-81.1332,33.04,93,75,6.91
459,Jijiga,ET,2022-04-17 00:00:38,9.35,42.8,68.04,69,83,3.24
460,The Valley,AI,2022-04-17 00:00:39,18.217,-63.0578,79.11,76,40,24.11
461,Ravar,IR,2022-04-17 00:00:39,31.2656,56.8055,70.86,29,100,9.22
462,Ziniare,BF,2022-04-17 00:01:39,12.5822,-1.2983,85.96,27,100,10.29
463,Bombay,IN,2022-04-16 23:59:16,19.0144,72.8479,82.38,78,40,2.3
464,Roald,NO,2022-04-17 00:01:40,62.5833,6.1333,46.76,93,40,6.91
465,Den Helder,NL,2022-04-17 00:01:40,52.9599,4.7593,49.98,70,13,7.0
466,Barra Patuca,HN,2022-04-17 00:01:40,15.8,-84.2833,79.12,75,64,10.47
467,Kandrian,PG,2022-04-17 00:01:41,-6.2167,149.55,85.3,70,89,5.46
468,Akyab,MM,2022-04-17 00:01:41,20.15,92.9,80.4,82,24,2.17
469,Hirara,JP,2022-04-17 00:01:41,24.8,125.2833,70.72,64,86,11.45
470,Rivadavia,AR,2022-04-17 00:01:42,-33.1905,-68.4608,65.95,36,2,8.86
471,Batemans Bay,AU,2022-04-17 00:01:42,-35.7167,150.1833,67.1,55,9,5.88
472,Marondera,ZW,2022-04-17 00:01:42,-18.1853,31.5519,57.7,91,84,8.66
473,Marzuq,YE,2022-04-17 00:01:43,14.4,46.4667,69.94,40,1,5.28
474,Havre-Saint-Pierre,CA,2022-04-17 00:01:43,50.2334,-63.5986,34.7,81,33,14.2
475,Saint George,US,2022-04-16 23:56:03,37.1041,-113.5841,76.24,14,28,3.0
476,Siilinjarvi,FI,2022-04-17 00:01:43,63.0833,27.6667,28.42,80,0,2.3
477,Piacabucu,BR,2022-04-17 00:01:44,-10.4056,-36.4344,80.55,83,12,9.53
478,Catuday,PH,2022-04-17 00:01:44,16.2923,119.8062,80.62,68,23,7.2
479,Bilibino,RU,2022-04-17 00:01:44,68.0546,166.4372,20.48,82,86,1.74
480,Shihezi,CN,2022-04-17 00:01:44,44.3,86.0333,48.65,21,0,1.61
481,Amalapuram,IN,2022-04-17 00:01:45,16.5833,82.0167,78.6,95,27,1.79
482,Zabol,AF,2022-04-17 00:01:45,32.25,67.25,62.17,22,94,3.02
483,Kushiro,JP,2022-04-17 00:01:45,42.975,144.3747,42.75,68,1,7.76
484,Bonavista,CA,2022-04-17 00:01:46,48.6499,-53.1147,39.63,76,28,19.01
485,Lata,PT,2022-04-17 00:01:33,40.1629,-8.3327,55.92,92,27,1.86
486,Luwuk,ID,2022-04-17 00:01:46,-0.9516,122.7875,81.73,82,97,2.73
487,Opotiki,NZ,2022-04-17 00:01:46,-38.0833,177.2833,70.39,71,100,10.67
488,Joshimath,IN,2022-04-17 00:01:47,30.5667,79.5667,52.02,43,10,9.13
489,Yairipok,IN,2022-04-17 00:01:47,24.6667,94.0667,65.23,88,16,0.54
490,Naze,JP,2022-04-17 00:01:48,28.3667,129.4833,64.04,60,88,8.9
491,Sabang,ID,2022-04-17 00:01:48,5.8933,95.3214,83.08,67,75,3.36
492,Yerbogachen,RU,2022-04-17 00:01:48,61.2767,108.0108,37.44,99,100,10.83
493,Khandyga,RU,2022-04-17 00:01:48,62.6667,135.6,20.34,84,86,1.12
494,Carinhanha,BR,2022-04-17 00:01:49,-14.3047,-43.765,74.7,77,92,6.53
495,Jiancheng,CN,2022-04-17 00:01:49,30.391,104.5491,49.39,93,100,6.44
496,Abaza,RU,2022-04-17 00:01:49,52.655,90.0928,41.85,67,8,4.88
497,Rio Grande,BR,2022-04-17 00:01:50,-32.035,-52.0986,60.94,74,70,9.95
498,Limbang,MY,2022-04-17 00:01:50,4.75,115.0,78.91,81,80,2.51
499,Atar,MR,2022-04-17 00:01:50,20.5169,-13.0499,80.28,12,0,3.76
500,Dolores,AR,2022-04-17 00:00:02,-36.3132,-57.6792,55.56,92,56,6.82
501,Banff,CA,2022-04-17 00:01:51,51.1762,-115.5698,29.16,68,91,4.88
502,Moroto,UG,2022-04-17 00:01:51,2.5345,34.6666,64.96,88,100,4.36
503,Tado,CO,2022-04-17 00:01:52,5.266,-76.5649,73.69,98,100,0.98
504,Constitucion,CL,2022-04-17 00:01:52,-35.3333,-72.4167,53.13,83,3,7.18
505,Ponedera,CO,2022-04-17 00:01:52,10.641,-74.7503,81.07,79,73,10.38
506,Beloha,MG,2022-04-17 00:01:52,-25.1667,45.05,72.07,95,18,6.98
507,Madison,US,2022-04-17 00:01:53,34.7334,-86.5667,68.79,83,40,5.75
508,Kimbe,PG,2022-04-17 00:01:53,-5.5502,150.1429,85.95,69,91,2.17
509,Shimoda,JP,2022-04-17 00:02:53,34.6667,138.95,50.11,75,100,10.02
510,Brae,GB,2022-04-17 00:02:54,60.3964,-1.353,45.93,97,100,17.11
511,Soubre,CI,2022-04-17 00:02:54,5.7856,-6.6083,72.73,98,100,6.98
512,Santa Maria,BR,2022-04-17 00:02:54,-29.6842,-53.8069,56.91,83,2,5.75
513,Walvis Bay,NA,2022-04-17 00:02:55,-22.9575,14.5053,55.09,75,2,3.76
514,Chipinge,ZW,2022-04-17 00:02:55,-20.1883,32.6236,62.69,97,99,4.18
515,Kalabo,ZM,2022-04-17 00:02:55,-14.97,22.6814,67.48,92,100,4.32
516,Barkhan,PK,2022-04-17 00:02:56,29.8977,69.5256,73.53,10,87,6.24
517,Villazon,BO,2022-04-17 00:02:56,-22.0866,-65.5942,45.93,48,0,9.19
518,Fethiye,TR,2022-04-17 00:02:56,36.6217,29.1164,55.27,46,96,8.52
519,Inongo,CD,2022-04-17 00:02:57,-1.95,18.2667,74.16,83,75,2.3
520,Drummondville,CA,2022-04-17 00:02:57,45.8834,-72.4824,42.03,57,93,5.01
521,Ancud,CL,2022-04-17 00:02:57,-41.8697,-73.8203,52.03,87,5,3.2
522,Bathsheba,BB,2022-04-17 00:00:17,13.2167,-59.5167,77.97,78,19,19.98
523,Surt,LY,2022-04-17 00:02:58,31.2089,16.5887,62.78,85,49,16.93
524,Kisangani,CD,2022-04-17 00:00:24,0.5167,25.2,69.04,97,72,1.9
525,Shiyan,CN,2022-04-17 00:02:58,32.6475,110.7781,50.32,77,99,4.14
526,Antsohihy,MG,2022-04-17 00:02:58,-14.8796,47.9875,72.03,76,1,6.42
527,Margate,GB,2022-04-17 00:01:48,51.3813,1.3862,51.31,82,12,1.99
528,Moussoro,TD,2022-04-17 00:02:59,13.6408,16.4901,87.31,42,34,10.22
529,Gao,ML,2022-04-17 00:02:59,16.6362,1.637,81.88,10,100,11.27
530,Pihuamo,MX,2022-04-17 00:03:00,19.2499,-103.3828,87.55,33,77,7.63
531,Zabaykalsk,RU,2022-04-17 00:03:00,49.6333,117.3167,35.98,29,89,10.0
532,Sangolqui,EC,2022-04-17 00:03:00,-0.3341,-78.4522,57.9,93,100,0.43
533,Hofn,IS,2022-04-17 00:03:01,64.2539,-15.2082,46.11,99,100,8.84
534,Vao,NC,2022-04-17 00:03:01,-22.6667,167.4833,76.6,70,0,8.28
535,Lithakia,GR,2022-04-17 00:03:01,37.7167,20.8333,56.57,63,88,17.81
536,Praya,CV,2022-04-17 00:03:02,14.9215,-23.5087,70.07,81,54,12.19
537,Karabulak,RU,2022-04-17 00:03:02,43.3036,44.8964,38.39,82,5,2.35
538,Nhulunbuy,AU,2022-04-17 00:03:02,-12.2333,136.7667,77.61,88,100,14.97
539,Laguna,US,2022-04-16 23:54:35,38.421,-121.4238,71.69,55,40,11.5
540,Manakara,MG,2022-04-17 00:03:03,-22.1333,48.0167,72.21,89,21,2.04
541,Tamandare,BR,2022-04-17 00:03:03,-8.7597,-35.1047,80.55,84,15,9.6
542,Outjo,NA,2022-04-17 00:01:20,-20.1167,16.15,64.76,41,26,3.94
543,Saint-Joseph,RE,2022-04-17 00:03:03,-21.3667,55.6167,75.58,78,26,11.52
544,Kihei,US,2022-04-17 00:03:04,20.785,-156.4656,78.82,57,40,10.36
545,Narrabri,AU,2022-04-17 00:03:04,-30.3167,149.7833,69.53,61,0,4.0
546,Urubicha,BO,2022-04-17 00:03:04,-15.3833,-62.95,70.83,74,14,3.2
547,Praia,CV,2022-04-17 00:03:05,14.9215,-23.5087,70.07,81,54,12.19
548,Alakurtti,RU,2022-04-17 00:03:05,66.9672,30.3491,33.85,88,99,8.68
549,Sioux Lookout,CA,2022-04-17 00:03:05,50.1001,-91.917,26.67,63,75,9.22
550,Kamina,CD,2022-04-17 00:03:06,-8.7386,24.9906,63.64,97,85,2.01
551,Port Blair,IN,2022-04-17 00:03:06,11.6667,92.75,81.81,71,54,2.51
552,Codrington,AU,2022-04-17 00:03:06,-38.2667,141.9667,73.99,36,100,22.79
553,Biltine,TD,2022-04-17 00:03:07,14.5333,20.9167,85.55,25,46,2.71
554,Nagato,JP,2022-04-17 00:03:07,34.3833,131.2,53.2,49,61,2.15
555,Grand Baie,MU,2022-04-17 00:04:07,-20.0182,57.5802,77.45,85,16,7.0
556,Puerto Ayacucho,VE,2022-04-17 00:04:08,5.6639,-67.6236,77.56,82,100,3.85
557,Vestmannaeyjar,IS,2022-04-17 00:04:08,63.4427,-20.2734,46.69,94,100,15.41
558,Mujiayingzi,CN,2022-04-17 00:04:08,42.1167,118.7833,51.84,20,30,9.24
559,Shenjiamen,CN,2022-04-17 00:04:09,29.9576,122.298,56.26,59,66,7.94
560,Huicheng,CN,2022-04-17 00:04:09,23.0385,116.2899,65.44,74,97,13.04
561,Half Moon Bay,US,2022-04-17 00:04:09,37.4636,-122.4286,67.03,67,0,16.11
562,Henties Bay,NA,2022-04-17 00:04:10,-22.116,14.2845,60.24,80,25,4.12
563,La Ronge,CA,2022-04-17 00:04:10,55.1001,-105.2842,27.86,75,100,5.12
564,Marrakesh,MA,2022-04-17 00:04:10,31.6315,-8.0083,69.87,40,0,3.44
565,Gympie,AU,2022-04-17 00:04:11,-26.1898,152.665,69.19,62,28,8.32
566,Ucluelet,CA,2022-04-17 00:04:11,48.9329,-125.5528,43.59,64,100,6.62
567,Aktau,KZ,2022-04-17 00:04:11,43.65,51.2,48.78,66,21,11.54
568,Byron Bay,AU,2022-04-17 00:04:12,-28.65,153.6167,65.95,85,79,7.2
569,Shingu,JP,2022-04-17 00:04:12,33.7333,135.9833,61.99,58,85,6.29
570,Bom Jesus Da Lapa,BR,2022-04-17 00:00:48,-13.255,-43.4181,75.0,83,100,4.99
571,Barabai,ID,2022-04-17 00:04:12,-2.5833,115.3833,75.38,92,100,1.77
572,Gravdal,NO,2022-04-17 00:04:13,68.1214,13.5031,42.06,99,100,13.22
573,Neringa,LT,2022-04-17 00:04:13,55.3719,21.0647,38.62,71,96,7.72
574,Kavaratti,IN,2022-04-17 00:01:35,10.5669,72.642,83.66,73,24,6.06
575,Bhimunipatnam,IN,2022-04-17 00:04:13,17.8833,83.4333,83.71,84,73,9.89
576,Heihe,CN,2022-04-17 00:04:14,50.2441,127.4902,37.98,50,25,16.49
577,Biysk,RU,2022-04-17 00:04:14,52.5364,85.2072,48.45,61,4,3.4
578,Svetlyy,RU,2022-04-17 00:04:14,54.675,20.1347,37.45,89,68,6.62
579,Markova,UA,2022-04-17 00:04:15,48.6758,24.4138,29.97,94,100,4.21
580,Klyuchi,RU,2022-04-17 00:04:15,52.2667,79.1667,48.13,36,65,8.93
581,Pindi Bhattian,PK,2022-04-17 00:04:15,31.8978,73.273,74.91,31,68,7.0
582,Moron,AR,2022-04-17 00:04:16,-34.6534,-58.6198,65.97,75,69,6.42
583,George Town,MY,2022-04-17 00:04:16,5.4112,100.3354,78.73,94,20,0.0
584,Vung Tau,VN,2022-04-17 00:04:16,10.346,107.0843,82.02,74,7,13.4
585,Thohoyandou,ZA,2022-04-17 00:04:17,-22.9456,30.485,59.74,96,100,4.88
